Project HoHoHo booted!
OK uBlox Falcom checks
$GPGGA,092359.00,,,,,0,00,99.99,,,,,,*62
Sensors;-129;-148;13
$$TBL,0,00:00:00,0.0000,0.0000,0,X*02
$GPGGA,092406.000,5236.3068,N,00441.9999,E,1,04,5.4,11.6,M,46.9,M,,0000*63
Sensors;-170;-171;8
$$TBB,0,11:24:06,52.6051,4.6999,11,T*0E
$GPGGA,092415.00,,,,,0,00,99.99,,,,,,*6D
Sensors;-174;-175;7
$$TBL,1,11:24:06,52.6051,4.6999,11,T*01
$GPGGA,092423.000,5236.3075,N,00442.0013,E,1,06,2.0,-1.0,M,46.9,M,,0000*72
Sensors;-172;-173;8
$$TBB,1,11:24:23,52.6051,4.7000,-1,T*1C
$GPGGA,092432.00,,,,,0,00,99.99,,,,,,*68
Sensors;-175;-176;7
$$TBL,2,11:24:23,52.6051,4.7000,-1,T*11
$GPGGA,092440.000,5236.3051,N,00442.0012,E,1,06,2.1,-6.4,M,46.9,M,,0000*72
Sensors;-174;-175;7
$$TBB,2,11:24:40,52.6050,4.7000,-6,T*1C
$GPGGA,092449.00,,,,,0,00,99.99,,,,,,*64
Sensors;-176;-177;7
$$TBL,3,11:24:40,52.6050,4.7000,-6,T*13
$GPGGA,092457.000,5236.3026,N,00442.0027,E,1,05,3.0,-0.9,M,46.9,M,,0000*7A
Sensors;-174;-175;7
$$TBB,3,11:24:57,52.6050,4.7000,0,T*30
$GPGGA,092505.00,,,,,0,00,99.99,,,,,,*6D
Sensors;-175;-174;7
$$TBL,4,11:24:57,52.6050,4.7000,0,T*39
$GPGGA,092513.000,5236.3079,N,00442.0025,E,1,05,2.1,5.9,M,46.9,M,,0000*5B
Sensors;-174;-175;7
$$TBB,4,11:25:13,52.6051,4.7000,5,T*32
$GPGGA,092521.00,,,,,0,00,99.99,,,,,,*6B
Sensors;-176;-177;7
$$TBL,5,11:25:13,52.6051,4.7000,5,T*3D
$GPGGA,092529.000,5236.3099,N,00442.0010,E,1,06,2.1,4.3,M,46.9,M,,0000*52
Sensors;-174;-175;7
$$TBB,5,11:25:29,52.6051,4.7000,4,T*3B
$GPGGA,092537.00,,,,,0,00,99.99,,,,,,*6C
Sensors;-176;-177;7
$$TBL,6,11:25:29,52.6051,4.7000,4,T*36
$GPGGA,092545.000,5236.3112,N,00441.9993,E,1,03,10.0,-4.0,M,46.9,M,,0000*4B
Sensors;-175;-176;7
$$TBB,6,11:25:45,52.6051,4.6999,-4,T*17
$GPGGA,092554.00,,,,,0,00,99.99,,,,,,*69
Sensors;-176;-177;7
$$TBL,7,11:25:45,52.6051,4.6999,-4,T*18
$GPGGA,092602.000,5236.3089,N,00442.0008,E,1,06,2.1,-1.5,M,46.9,M,,0000*7E
Sensors;-175;-176;7
$$TBB,7,11:26:02,52.6051,4.7000,-1,T*1B
$GPGGA,092611.00,,,,,0,00,99.99,,,,,,*6B
Sensors;-177;-178;6
$$TBL,8,11:26:02,52.6051,4.7000,-1,T*1A
$GPGGA,092619.000,5236.3120,N,00441.9958,E,1,06,2.1,5.1,M,46.9,M,,0000*5D
Sensors;-175;-176;7
$$TBB,8,11:26:19,52.6052,4.6999,5,T*3C
$GPGGA,092627.00,,,,,0,00,99.99,,,,,,*6E
Sensors;-177;-178;6
$$TBL,9,11:26:19,52.6052,4.6999,5,T*33
$GPGGA,092635.000,5236.3051,N,00441.9992,E,1,06,2.1,1.3,M,46.9,M,,0000*54
Sensors;-175;-176;7
TBB,9,11:26:35,52.6050,4.6999,1,T*35
$GPGGA,092648.00,,,,,0,00,99.99,,,,,,*67
Sensors;-177;-178;6
TBL,10,11:26:35,52.6050,4.6999,1,T*03
$GPGGA,092700.000,5236.3157,N,00441.9916,E,1,05,4.3,10.5,M,46.9,M,,0000*69
Sensors;-175;-174;7
$$TBB,10,11:27:00,52.6052,4.6998,10,T*39
$GPGGA,092709.00,,,,,0,00,99.99,,,,,,*63
Sensors;-178;-178;6
$$TBL,11,11:27:00,52.6052,4.6998,10,T*36
$GPGGA,092717.000,5236.3146,N,00441.9916,E,1,05,4.2,14.3,M,46.9,M,,0000*6C
Sensors;-176;-176;7
$$TBB,11,11:27:17,52.6052,4.6998,14,T*3A
$GPGGA,092726.00,,,,,0,00,99.99,,,,,,*6E
Sensors;-178;-178;6
$$TBL,12,11:27:17,52.6052,4.6998,14,T*37
$GPGGA,092734.000,5236.3143,N,00441.9926,E,1,05,2.3,7.3,M,46.9,M,,0000*5E
Sensors;-175;-174;7
$$TBB,12,11:27:34,52.6052,4.6998,7,T*0A
$GPGGA,092743.00,,,,,0,00,99.99,,,,,,*6D
Sensors;-178;-179;6
$$TBL,13,11:27:34,52.6052,4.6998,7,T*05
$GPGGA,092751.000,5236.3111,N,00441.9906,E,1,06,2.1,-5.9,M,46.9,M,,0000*7C
Sensors;-176;-177;7
$$TBB,13,11:27:51,52.6051,4.6998,-5,T*24
$GPGGA,092800.00,,,,,0,00,99.99,,,,,,*65
Sensors;-178;-178;6
$$TBL,14,11:27:51,52.6051,4.6998,-5,T*2D
$GPGGA,092808.000,5236.3087,N,00441.9918,E,1,06,2.1,-9.7,M,46.9,M,,0000*7C
Sensors;-175;-174;7
$$TBB,14,11:28:08,52.6051,4.6998,-9,T*2C
$GPGGA,092817.00,,,,,0,00,99.99,,,,,,*63
Sensors;-178;-179;6
$$TBL,15,11:28:08,52.6051,4.6998,-9,T*23
$GPGGA,092825.000,5236.3114,N,00441.9913,E,1,06,2.1,-4.6,M,46.9,M,,0000*7F
Sensors;-176;-177;7
$$TBB,15,11:28:25,52.6051,4.6998,-4,T*2F
$GPGGA,092834.00,,,,,0,00,99.99,,,,,,*62
Sensors;-178;-179;6
$$TBL,16,11:28:25,52.6051,4.6998,-4,T*22
$GPGGA,092842.000,5236.3177,N,00441.9889,E,1,06,2.1,9.5,M,46.9,M,,0000*5A
Sensors;-176;-177;7
$$TBB,16,11:28:42,52.6052,4.6998,9,T*0E
$GPGGA,092851.00,,,,,0,00,99.99,,,,,,*61
Sensors;-178;-179;6
$$TBL,17,11:28:42,52.6052,4.6998,9,T*01
$GPGGA,092859.000,5236.3183,N,00441.9875,E,1,05,2.9,11.2,M,46.9,M,,0000*6D
Sensors;-176;-177;6
$$TBB,17,11:28:59,52.6053,4.6997,11,T*32
$GPGGA,092908.00,,,,,0,00,99.99,,,,,,*6C
Sensors;-178;-179;6
$$TBL,18,11:28:59,52.6053,4.6997,11,T*33
$GPGGA,092916.000,5236.3170,N,00441.9875,E,1,06,2.1,13.3,M,46.9,M,,0000*63
Sensors;-176;-177;7
$$TBB,18,11:29:16,52.6052,4.6997,13,T*34
$GPGGA,092925.00,,,,,0,00,99.99,,,,,,*63
Sensors;-178;-179;6
$$TBL,19,11:29:16,52.6052,4.6997,13,T*3B
$GPGGA,092933.000,5236.3139,N,00441.9876,E,1,06,2.1,7.1,M,46.9,M,,0000*5D
Sensors;-176;-177;6
$$TBB,19,11:29:33,52.6052,4.6997,7,T*07
$GPGGA,092942.00,,,,,0,00,99.99,,,,,,*62
Sensors;-178;-179;6
$$TBL,20,11:29:33,52.6052,4.6997,7,T*03
$GPGGA,092950.000,5236.3149,N,00441.9881,E,1,05,3.8,10.7,M,46.9,M,,0000*6C
Sensors;-176;-177;6
$$TBB,20,11:29:50,52.6052,4.6998,10,T*31
$GPGGA,092959.00,,,,,0,00,99.99,,,,,,*68
Sensors;-179;-179;6
$$TBL,21,11:29:50,52.6052,4.6998,10,T*3E
$GPGGA,093007.000,5236.3133,N,00441.9901,E,1,05,2.9,4.4,M,46.9,M,,0000*54
Sensors;-176;-177;6
$$TBB,21,11:30:07,52.6052,4.6998,4,T*0F
$GPGGA,093016.00,,,,,0,00,99.99,,,,,,*6B
Sensors;-179;-179;6
$$TBL,22,11:30:07,52.6052,4.6998,4,T*02
$GPGGA,093024.000,5236.3128,N,00441.9898,E,1,06,2.1,-1.2,M,46.9,M,,0000*7B
Sensors;-176;-177;6
$$TBB,22,11:30:24,52.6052,4.6998,-1,T*25
$GPGGA,093033.00,5236.31401,N,00441.99129,E,1,04,4.68,-13.3,M,45.8,M,,*43
Sensors;-176;-175;7
$$TBL,23,11:30:33,52.6052,4.6998,-13,F*0D
$GPGGA,093041.000,5236.3141,N,00441.9893,E,1,06,2.1,-0.4,M,46.9,M,,0000*7B
Sensors;-177;-178;6
$$TBB,23,11:30:41,52.6052,4.6998,0,T*0B
$GPGGA,093050.00,5236.30259,N,00441.98926,E,1,04,4.64,-39.1,M,45.8,M,,*4C
Sensors;-177;-178;6
$$TBL,24,11:30:50,52.6050,4.6998,-39,F*05
$GPGGA,093058.000,5236.3152,N,00441.9893,E,1,06,2.1,6.2,M,46.9,M,,0000*5C
Sensors;-177;-178;6
$$TBB,24,11:30:58,52.6052,4.6998,6,T*02
$GPGGA,093107.00,5236.32674,N,00441.99255,E,1,04,4.61,23.5,M,45.8,M,,*6F
Sensors;-177;-178;6
$$TBL,25,11:31:07,52.6054,4.6998,23,F*25
$GPGGA,093114.000,5236.3126,N,00441.9901,E,1,05,2.9,0.1,M,46.9,M,,0000*52
Sensors;-177;-178;6
$$TBB,25,11:31:14,52.6052,4.6998,0,T*0C
$GPGGA,093123.00,5236.32357,N,00441.99265,E,1,04,4.57,7.6,M,45.8,M,,*5E
Sensors;-177;-178;6
$$TBL,26,11:31:23,52.6053,4.6998,7,F*11
$GPGGA,093131.000,5236.3142,N,00441.9881,E,1,06,2.1,9.1,M,46.9,M,,0000*5C
Sensors;-177;-178;6
$$TBB,26,11:31:31,52.6052,4.6998,9,T*01
$GPGGA,093140.00,5236.31592,N,00441.98720,E,1,04,4.53,3.6,M,45.8,M,,*52
Sensors;-177;-178;6
$$TBL,27,11:31:40,52.6052,4.6997,3,F*1F
$GPGGA,093148.000,5236.3165,N,00441.9900,E,1,06,2.1,10.3,M,46.9,M,,0000*65
Sensors;-177;-178;6
$$TBB,27,11:31:48,52.6052,4.6998,10,T*36
$GPGGA,093157.00,5236.31620,N,00441.97889,E,1,04,4.49,15.2,M,45.8,M,,*65
Sensors;-177;-178;6
$$TBL,28,11:31:57,52.6052,4.6996,15,F*20
$GPGGA,093205.000,5236.3159,N,00441.9912,E,1,06,2.1,2.3,M,46.9,M,,0000*50
Sensors;-176;-175;7
$$TBB,28,11:32:05,52.6052,4.6998,2,T*00
$GPGGA,093214.00,5236.31723,N,00441.97707,E,1,04,4.46,11.8,M,45.8,M,,*6B
Sensors;-177;-178;6
$$TBL,29,11:32:14,52.6052,4.6996,11,F*21
$GPGGA,093222.000,5236.3142,N,00441.9893,E,1,06,2.1,5.6,M,46.9,M,,0000*55
Sensors;-177;-178;6
$$TBB,29,11:32:22,52.6052,4.6998,5,T*03
Failed to read GPS
$$TBB,29,11:32:22,52.6052,4.6998,5,T
Sensors;-179;-179;6
$$TBL,30,11:32:22,52.6052,4.6998,5,T*05
$GPGGA,093240.000,5236.3132,N,00441.9892,E,1,06,2.1,1.8,M,46.9,M,,0000*5D
Sensors;-176;-175;7
$$TBB,30,11:32:40,52.6052,4.6998,1,T*0B
$GPGGA,093249.00,5236.31413,N,00441.98519,E,1,04,4.38,14.6,M,45.8,M,,*63
Sensors;-177;-178;6
$$TBL,31,11:32:49,52.6052,4.6997,14,F*24
$GPGGA,093257.000,5236.3160,N,00441.9880,E,1,05,2.8,1.6,M,46.9,M,,0000*5B
Sensors;-177;-178;6
$$TBB,31,11:32:57,52.6052,4.6997,1,T*03
$GPGGA,093306.00,5236.31070,N,00441.97801,E,1,04,4.35,2.5,M,45.8,M,,*5A
Sensors;-177;-178;6
$$TBL,32,11:33:06,52.6051,4.6996,2,F*18
$GPGGA,093314.000,5236.3152,N,00441.9840,E,1,05,3.4,1.6,M,46.9,M,,0000*5D
Sensors;-177;-178;6
$$TBB,32,11:33:14,52.6052,4.6997,1,T*06
$GPGGA,093323.00,5236.30597,N,00441.98291,E,1,04,4.32,-15.8,M,45.8,M,,*4D
Sensors;-177;-178;6
$$TBL,33,11:33:23,52.6051,4.6997,-15,F*04
$GPGGA,093331.000,5236.3142,N,00441.9881,E,1,06,2.1,-5.5,M,46.9,M,,0000*7B
Sensors;-177;-178;6
$$TBB,33,11:33:31,52.6052,4.6998,-5,T*26
$GPGGA,093340.00,5236.30352,N,00441.97761,E,1,04,4.28,-17.2,M,45.8,M,,*41
Sensors;-177;-178;6
$$TBL,34,11:33:40,52.6050,4.6996,-17,F*04
$GPGGA,093348.000,5236.3171,N,00441.9869,E,1,05,3.0,-0.1,M,46.9,M,,0000*71
Sensors;-177;-178;6
$$TBB,34,11:33:48,52.6052,4.6997,0,T*08
$GPGGA,093357.00,5236.30642,N,00441.98037,E,1,04,4.25,-13.1,M,45.8,M,,*42
Sensors;-177;-178;6
$$TBL,35,11:33:57,52.6051,4.6996,-13,F*06
$GPGGA,093405.000,5236.3152,N,00441.9896,E,1,06,2.1,0.3,M,46.9,M,,0000*52
Sensors;-177;-178;6
$$TBB,35,11:34:05,52.6052,4.6998,0,T*08
$GPGGA,093414.00,,,,,0,00,99.99,,,,,,*6D
Sensors;-179;-179;6
$$TBL,36,11:34:05,52.6052,4.6998,0,T*05
$GPGGA,093422.000,5236.3153,N,00441.9871,E,1,06,2.1,9.7,M,46.9,M,,0000*52
Sensors;-177;-178;6
$$TBB,36,11:34:22,52.6052,4.6997,9,T*08
$GPGGA,093431.00,5236.31246,N,00441.98643,E,1,04,4.19,-4.1,M,45.8,M,,*78
Sensors;-177;-178;6
$$TBL,37,11:34:31,52.6052,4.6997,-4,F*37
$GPGGA,093439.000,5236.3168,N,00441.9899,E,1,06,2.1,12.1,M,46.9,M,,0000*6A
Sensors;-177;-178;6
$$TBB,37,11:34:39,52.6052,4.6998,12,T*36
$GPGGA,093448.00,5236.30361,N,00441.98776,E,1,04,4.16,-40.7,M,45.8,M,,*4D
Sensors;-176;-175;7
$$TBL,38,11:34:48,52.6050,4.6997,-40,F*04
$GPGGA,093456.000,5236.3133,N,00441.9897,E,1,05,3.0,-9.3,M,46.9,M,,0000*75
Sensors;-178;-178;6
$$TBB,38,11:34:56,52.6052,4.6998,-9,T*27
$GPGGA,093505.00,5236.32630,N,00441.98172,E,1,04,4.12,29.6,M,45.8,M,,*63
Sensors;-178;-179;6
$$TBL,39,11:35:05,52.6054,4.6996,29,F*2A
$GPGGA,093513.000,5236.3163,N,00441.9904,E,1,05,3.0,-10.2,M,46.9,M,,0000*42
Sensors;-178;-178;6
$$TBB,39,11:35:13,52.6052,4.6998,-10,T*1E
$GPGGA,093522.00,5236.32683,N,00441.98498,E,1,04,4.09,22.6,M,45.8,M,,*6E
Sensors;-178;-179;6
$$TBL,40,11:35:22,52.6054,4.6997,22,F*2B
$GPGGA,093530.000,5236.3134,N,00441.9857,E,1,05,3.0,2.7,M,46.9,M,,0000*5D
Sensors;-178;-178;6
$$TBB,40,11:35:30,52.6052,4.6997,2,T*00
$GPGGA,093539.00,,,,,0,00,99.99,,,,,,*63
Sensors;-179;-180;6
$$TBL,41,11:35:30,52.6052,4.6997,2,T*0F
$GPGGA,093547.000,5236.3171,N,00441.9844,E,1,06,2.1,14.9,M,46.9,M,,0000*64
Sensors;-177;-178;6
$$TBB,41,11:35:47,52.6052,4.6997,14,T*36
$GPGGA,093556.00,5236.31748,N,00441.99206,E,1,04,4.04,20.6,M,45.8,M,,*67
Sensors;-178;-179;6
$$TBL,42,11:35:56,52.6052,4.6998,20,F*21
$GPGGA,093604.000,5236.3192,N,00442.0191,E,1,06,3.0,49.4,M,46.9,M,,0000*63
Sensors;-178;-179;6
$$TBB,42,11:36:04,52.6053,4.7003,49,T*3D
$GPGGA,093613.00,5236.32805,N,00442.05064,E,1,04,4.01,109.8,M,45.8,M,,*51
Sensors;-178;-179;6
$$TBL,43,11:36:13,52.6054,4.7008,109,F*1F
$GPGGA,093621.000,5236.3371,N,00442.0717,E,1,06,2.1,153.3,M,46.9,M,,0000*5E
Sensors;-178;-178;6
$$TBB,43,11:36:21,52.6056,4.7011,153,T*07
$GPGGA,093630.00,5236.34567,N,00442.09225,E,1,04,3.98,215.4,M,45.8,M,,*51
Sensors;-178;-178;6
$$TBL,44,11:36:30,52.6057,4.7015,215,F*18
$GPGGA,093638.000,5236.3416,N,00442.1175,E,1,07,2.1,259.1,M,46.9,M,,0000*59
Sensors;-177;-178;6
$$TBB,44,11:36:38,52.6056,4.7019,259,T*09
$GPGGA,093647.00,5236.35156,N,00442.14048,E,1,04,3.95,317.7,M,45.8,M,,*5E
Sensors;-177;-178;6
$$TBL,45,11:36:47,52.6058,4.7023,317,F*10
$GPGGA,093655.000,5236.3522,N,00442.1736,E,1,07,2.1,368.8,M,46.9,M,,0000*5F
Sensors;-176;-175;7
$$TBB,45,11:36:55,52.6058,4.7028,368,T*0C
$GPGGA,093704.00,5236.34801,N,00442.19934,E,1,04,3.92,424.7,M,45.8,M,,*5D
Sensors;-177;-178;6
$$TBL,46,11:37:04,52.6058,4.7033,424,F*13
$GPGGA,093712.000,5236.3564,N,00442.2221,E,1,07,2.1,488.5,M,46.9,M,,0000*5B
Sensors;-177;-177;6
$$TBB,46,11:37:12,52.6059,4.7037,488,T*0B
$GPGGA,093721.00,5236.36174,N,00442.23977,E,1,04,3.89,553.2,M,45.8,M,,*53
Sensors;-176;-177;6
$$TBL,47,11:37:21,52.6060,4.7039,553,F*15
$GPGGA,093729.000,5236.3671,N,00442.2628,E,1,07,2.1,608.2,M,46.9,M,,0000*54
Sensors;-177;-177;6
$$TBB,47,11:37:29,52.6061,4.7043,608,T*00
$GPGGA,093738.00,5236.37363,N,00442.28406,E,1,04,3.87,666.6,M,45.8,M,,*51
Sensors;-176;-177;7
$$TBL,48,11:37:38,52.6062,4.7047,666,F*1C
$GPGGA,093746.000,5236.3813,N,00442.3043,E,1,07,2.1,716.0,M,46.9,M,,0000*51
Sensors;-176;-177;7
$$TBB,48,11:37:46,52.6063,4.7050,716,T*08
$GPGGA,093755.00,5236.38963,N,00442.33125,E,1,04,3.84,778.3,M,45.8,M,,*59
Sensors;-176;-177;7
$$TBL,49,11:37:55,52.6064,4.7055,778,F*1D
$GPGGA,093803.000,5236.3959,N,00442.3513,E,1,07,2.1,825.5,M,46.9,M,,0000*5A
Sensors;-176;-176;7
$$TBB,49,11:38:03,52.6066,4.7058,825,T*05
$GPGGA,093812.00,5236.40384,N,00442.38814,E,1,05,3.67,878.1,M,45.8,M,,*58
Sensors;-176;-176;7
$$TBL,50,11:38:12,52.6067,4.7064,878,F*17
$GPGGA,093820.000,5236.4189,N,00442.4232,E,1,07,2.1,935.7,M,46.9,M,,0000*58
Sensors;-175;-176;7
$$TBB,50,11:38:20,52.6069,4.7070,935,T*09
$GPGGA,093829.00,5236.42845,N,00442.47209,E,1,05,3.65,983.1,M,45.8,M,,*5D
Sensors;-174;-173;7
$$TBL,51,11:38:29,52.6071,4.7078,983,F*11
$GPGGA,093837.000,5236.4360,N,00442.5219,E,1,07,2.1,1034.4,M,46.9,M,,0000*69
Sensors;-175;-176;7
$$TBB,51,11:38:37,52.6072,4.7086,1034,T*34
$GPGGA,093846.00,5236.44477,N,00442.56893,E,1,05,3.64,1084.1,M,45.8,M,,*68
Sensors;-175;-176;7
$$TBL,52,11:38:46,52.6074,4.7094,1084,F*23
$GPGGA,093855.000,5236.4518,N,00442.6092,E,1,07,2.1,1139.6,M,46.9,M,,0000*68
Sensors;-175;-176;7
$$TBB,52,11:38:55,52.6075,4.7101,1139,T*36
$GPGGA,093904.00,5236.45863,N,00442.65078,E,1,05,3.62,1194.9,M,45.8,M,,*64
Sensors;-175;-176;7
$$TBL,53,11:39:04,52.6076,4.7108,1194,F*23
$GPGGA,093913.000,5236.4624,N,00442.6844,E,1,07,2.1,1249.4,M,46.9,M,,0000*62
Sensors;-175;-176;7
$$TBB,53,11:39:13,52.6077,4.7114,1249,T*36
$GPGGA,093922.00,5236.46340,N,00442.72863,E,1,05,3.61,1300.1,M,45.8,M,,*69
Sensors;-175;-176;7
$$TBL,54,11:39:22,52.6077,4.7121,1300,F*25
$GPGGA,093931.000,5236.4667,N,00442.7679,E,1,07,2.1,1363.0,M,46.9,M,,0000*69
Sensors;-173;-172;8
$$TBB,54,11:39:31,52.6077,4.7127,1363,T*38
$GPGGA,093940.00,5236.47262,N,00442.80355,E,1,05,3.59,1414.5,M,45.8,M,,*63
Sensors;-175;-176;7
$$TBL,55,11:39:40,52.6078,4.7133,1414,F*2E
$GPGGA,093949.000,5236.4755,N,00442.8442,E,1,08,1.1,1477.2,M,46.9,M,,0000*6F
Sensors;-174;-176;7
$$TBB,55,11:39:49,52.6079,4.7140,1477,T*3B
$GPGGA,093958.00,5236.48000,N,00442.88047,E,1,05,3.57,1529.8,M,45.8,M,,*67
Sensors;-174;-175;7
$$TBL,56,11:39:58,52.6079,4.7146,1529,F*28
$GPGGA,094006.000,5236.4893,N,00442.9044,E,1,08,1.1,1589.2,M,46.9,M,,0000*6C
Sensors;-172;-171;8
$$TBB,56,11:40:06,52.6081,4.7150,1589,T*3B
$GPGGA,094015.00,5236.49412,N,00442.93310,E,1,05,3.56,1636.5,M,45.8,M,,*6C
Sensors;-174;-175;7
$$TBL,57,11:40:15,52.6082,4.7155,1636,F*25
$GPGGA,094023.000,5236.5027,N,00442.9635,E,1,08,1.1,1698.3,M,46.9,M,,0000*6F
Sensors;-174;-175;7
$$TBB,57,11:40:23,52.6083,4.7160,1698,T*3F
$GPGGA,094032.00,5236.50724,N,00443.00055,E,1,05,3.54,1749.7,M,45.8,M,,*67
Sensors;-174;-175;7
$$TBL,58,11:40:32,52.6084,4.7166,1749,F*20
$GPGGA,094041.000,5236.5150,N,00443.0344,E,1,09,0.9,1809.2,M,46.9,M,,0000*6E
Sensors;-174;-175;7
$$TBB,58,11:40:41,52.6085,4.7172,1809,T*37
$GPGGA,094050.00,5236.51717,N,00443.07141,E,1,06,2.48,1870.5,M,45.8,M,,*69
Sensors;-174;-175;7
$$TBL,59,11:40:50,52.6086,4.7178,1870,F*2D
$GPGGA,094058.000,5236.5215,N,00443.1116,E,1,09,0.9,1922.4,M,46.9,M,,0000*6E
Sensors;-174;-175;7
$$TBB,59,11:40:58,52.6086,4.7185,1922,T*3D
$GPGGA,094107.00,5236.53084,N,00443.14587,E,1,06,2.48,1980.4,M,45.8,M,,*66
Sensors;-172;-171;8
$$TBL,60,11:41:07,52.6088,4.7190,1980,F*22
$GPGGA,094115.000,5236.5450,N,00443.1908,E,1,09,0.9,2034.6,M,46.9,M,,0000*69
Sensors;-174;-175;7
$$TBB,60,11:41:15,52.6090,4.7198,2034,T*39
$GPGGA,094124.00,5236.56426,N,00443.22849,E,1,06,2.48,2096.3,M,45.8,M,,*6E
Sensors;-174;-175;7
$$TBL,61,11:41:24,52.6093,4.7204,2096,F*2B
$GPGGA,094132.000,5236.5828,N,00443.2608,E,1,09,0.9,2151.4,M,46.9,M,,0000*63
Sensors;-173;-175;7
$$TBB,61,11:41:32,52.6097,4.7210,2151,T*3B
$GPGGA,094141.00,5236.61345,N,00443.29834,E,1,06,2.48,2211.9,M,45.8,M,,*6D
Sensors;-174;-175;7
$$TBL,62,11:41:41,52.6102,4.7216,2211,F*2C
$GPGGA,094149.000,5236.6385,N,00443.3451,E,1,09,0.9,2265.6,M,46.9,M,,0000*69
Sensors;-173;-175;7
$$TBB,62,11:41:49,52.6106,4.7224,2265,T*3E
$GPGGA,094158.00,5236.66904,N,00443.39014,E,1,06,2.48,2324.7,M,45.8,M,,*6F
Sensors;-174;-175;7
$$TBL,63,11:41:58,52.6111,4.7231,2324,F*25
$GPGGA,094207.000,5236.6998,N,00443.4485,E,1,09,0.9,2381.8,M,46.9,M,,0000*6D
Sensors;-171;-170;8
$$TBB,63,11:42:07,52.6116,4.7241,2381,T*3F
$GPGGA,094216.00,5236.73570,N,00443.50667,E,1,06,2.48,2439.0,M,45.8,M,,*6C
Sensors;-174;-175;7
$$TBL,64,11:42:16,52.6122,4.7251,2439,F*26
$GPGGA,094224.000,5236.7716,N,00443.5560,E,1,08,1.1,2493.4,M,46.9,M,,0000*6E
Sensors;-173;-175;7
$$TBB,64,11:42:24,52.6128,4.7259,2493,T*39
$GPGGA,094233.00,5236.81570,N,00443.61261,E,1,06,2.48,2547.9,M,45.8,M,,*67
Sensors;-174;-175;7
$$TBL,65,11:42:33,52.6135,4.7268,2547,F*24
$GPGGA,094241.000,5236.8491,N,00443.6702,E,1,09,0.9,2600.6,M,46.9,M,,0000*69
Sensors;-171;-170;8
$$TBB,65,11:42:41,52.6141,4.7278,2600,T*3F
$GPGGA,094250.00,5236.89008,N,00443.74223,E,1,06,2.48,2652.2,M,45.8,M,,*6E
Sensors;-174;-175;7
$$TBL,66,11:42:50,52.6148,4.7290,2652,F*28
$GPGGA,094258.000,5236.9216,N,00443.8074,E,1,09,0.9,2712.9,M,46.9,M,,0000*6C
Sensors;-173;-175;7
$$TBB,66,11:42:58,52.6153,4.7301,2712,T*3A
$GPGGA,094307.00,5236.95887,N,00443.87487,E,1,06,2.48,2762.3,M,45.8,M,,*68
Sensors;-174;-175;7
$$TBL,67,11:43:07,52.6159,4.7312,2762,F*23
$GPGGA,094315.000,5236.9946,N,00443.9309,E,1,09,0.9,2821.8,M,46.9,M,,0000*6C
Sensors;-174;-175;7
$$TBB,67,11:43:15,52.6165,4.7321,2821,T*3B
$GPGGA,094324.00,5237.03627,N,00443.99821,E,1,06,2.48,2878.3,M,45.8,M,,*68
Sensors;-174;-175;7
$$TBL,68,11:43:24,52.6172,4.7333,2878,F*23
$GPGGA,094333.000,5237.0745,N,00444.0650,E,1,10,0.8,2941.7,M,46.9,M,,0000*6B
Sensors;-173;-175;7
$$TBB,68,11:43:33,52.6179,4.7344,2941,T*39
$GPGGA,094342.00,5237.12051,N,00444.14402,E,1,06,2.48,2989.0,M,45.8,M,,*6C
Sensors;-171;-170;8
$$TBL,69,11:43:42,52.6186,4.7357,2989,F*24
$GPGGA,094350.000,5237.1592,N,00444.2071,E,1,10,0.8,3052.2,M,46.9,M,,0000*6F
Sensors;-173;-175;7
$$TBB,69,11:43:50,52.6193,4.7367,3052,T*32
$GPGGA,094359.00,5237.19961,N,00444.27514,E,1,06,2.48,3100.2,M,45.8,M,,*6B
Sensors;-173;-175;7
$$TBL,70,11:43:59,52.6199,4.7379,3100,F*2C
$GPGGA,094407.000,5237.2465,N,00444.3460,E,1,10,0.8,3166.1,M,46.9,M,,0000*60
Sensors;-173;-175;7
$$TBB,70,11:44:07,52.6207,4.7390,3166,T*3F
$GPGGA,094416.00,5237.28824,N,00444.41871,E,1,06,2.48,3215.9,M,45.8,M,,*67
Sensors;-174;-175;7
$$TBL,71,11:44:16,52.6214,4.7403,3215,F*2A
$GPGGA,094424.000,5237.3258,N,00444.4796,E,1,10,0.8,3279.6,M,46.9,M,,0000*6F
Sensors;-173;-175;7
$$TBB,71,11:44:24,52.6220,4.7413,3279,T*3B
$GPGGA,094433.00,5237.36293,N,00444.56280,E,1,06,2.48,3329.3,M,45.8,M,,*6F
Sensors;-173;-175;7
$$TBL,72,11:44:33,52.6227,4.7427,3329,F*26
$GPGGA,094442.000,5237.3999,N,00444.6420,E,1,10,0.8,3393.3,M,46.9,M,,0000*65
Sensors;-173;-175;7
$$TBB,72,11:44:42,52.6233,4.7440,3393,T*39
$GPGGA,094451.00,5237.43980,N,00444.72353,E,1,06,2.48,3449.5,M,45.8,M,,*6E
Sensors;-173;-175;7
$$TBL,73,11:44:51,52.6239,4.7453,3449,F*2E
$GPGGA,094500.000,5237.4712,N,00444.8106,E,1,10,0.8,3502.2,M,46.9,M,,0000*68
Sensors;-173;-175;8
$$TBB,73,11:45:00,52.6245,4.7468,3502,T*3A
$GPGGA,094509.00,5237.50884,N,00444.88545,E,1,06,2.48,3555.8,M,45.8,M,,*60
Sensors;-173;-175;8
$$TBL,74,11:45:09,52.6251,4.7480,3555,F*29
$GPGGA,094518.000,5237.5438,N,00444.9658,E,1,10,0.8,3611.5,M,46.9,M,,0000*60
Sensors;-170;-170;8
$$TBB,74,11:45:18,52.6257,4.7494,3611,T*35
$GPGGA,094527.00,5237.58754,N,00445.04462,E,1,06,2.48,3668.4,M,45.8,M,,*66
Sensors;-173;-175;7
$$TBL,75,11:45:27,52.6264,4.7507,3668,F*21
$GPGGA,094535.000,5237.6167,N,00445.1170,E,1,10,0.8,3720.6,M,46.9,M,,0000*67
Sensors;-173;-175;8
$$TBB,75,11:45:35,52.6269,4.7519,3720,T*31
$GPGGA,094544.00,5237.65823,N,00445.19254,E,1,06,2.47,3778.5,M,45.8,M,,*63
Sensors;-173;-175;8
$$TBL,76,11:45:44,52.6276,4.7532,3778,F*22
$GPGGA,094552.000,5237.6878,N,00445.2571,E,1,10,0.8,3832.0,M,46.9,M,,0000*6D
Sensors;-173;-175;8
$$TBB,76,11:45:52,52.6281,4.7542,3832,T*37
$GPGGA,094601.00,5237.72669,N,00445.32618,E,1,07,1.60,3887.8,M,45.8,M,,*67
Sensors;-173;-175;8
$$TBL,77,11:46:01,52.6287,4.7554,3887,F*20
$GPGGA,094609.000,5237.7601,N,00445.3926,E,1,10,0.8,3944.0,M,46.9,M,,0000*6E
Sensors;-173;-174;8
$$TBB,77,11:46:09,52.6293,4.7565,3944,T*3D
$GPGGA,094618.00,5237.80432,N,00445.45820,E,1,07,1.60,4001.8,M,45.8,M,,*6A
Sensors;-170;-170;8
$$TBL,78,11:46:18,52.6300,4.7576,4001,F*28
$GPGGA,094626.000,5237.8440,N,00445.5141,E,1,10,0.8,4058.8,M,46.9,M,,0000*6F
Sensors;-173;-175;8
$$TBB,78,11:46:26,52.6307,4.7585,4058,T*3E
$GPGGA,094635.00,5237.88351,N,00445.58091,E,1,07,1.60,4110.0,M,45.8,M,,*68
Sensors;-173;-175;8
$$TBL,79,11:46:35,52.6313,4.7596,4110,F*2B
$GPGGA,094643.000,5237.9219,N,00445.6403,E,1,10,0.8,4167.2,M,46.9,M,,0000*60
Sensors;-173;-174;8
$$TBB,79,11:46:43,52.6320,4.7606,4167,T*3C
$GPGGA,094652.00,5237.96559,N,00445.71419,E,1,07,1.60,4221.3,M,45.8,M,,*65
Sensors;-173;-175;8
$$TBL,80,11:46:52,52.6327,4.7619,4221,F*2E
$GPGGA,094701.000,5238.0122,N,00445.7775,E,1,10,0.8,4280.5,M,46.9,M,,0000*64
Sensors;-173;-174;8
$$TBB,80,11:47:01,52.6335,4.7629,4280,T*3E
$GPGGA,094710.00,5238.05293,N,00445.83957,E,1,07,1.60,4334.7,M,45.8,M,,*6D
Sensors;-173;-175;8
$$TBL,81,11:47:10,52.6342,4.7639,4334,F*2C
$GPGGA,094719.000,5238.0975,N,00445.9034,E,1,10,0.8,4395.7,M,46.9,M,,0000*6C
Sensors;-172;-174;8
$$TBB,81,11:47:19,52.6349,4.7650,4395,T*36
$GPGGA,094728.00,5238.13296,N,00445.97583,E,1,07,1.60,4462.8,M,45.8,M,,*6F
Sensors;-173;-175;8
$$TBL,82,11:47:28,52.6355,4.7662,4462,F*28
$GPGGA,094737.000,5238.1752,N,00446.0531,E,1,10,0.8,4521.3,M,46.9,M,,0000*6D
Sensors;-173;-175;8
$$TBB,82,11:47:37,52.6362,4.7675,4521,T*3E
$GPGGA,094746.00,5238.21479,N,00446.13134,E,1,07,1.60,4575.7,M,45.8,M,,*6E
Sensors;-173;-175;8
$$TBL,83,11:47:46,52.6369,4.7688,4575,F*2D
$GPGGA,094755.000,5238.2545,N,00446.2068,E,1,10,0.8,4637.6,M,46.9,M,,0000*64
Sensors;-170;-170;8
$$TBB,83,11:47:55,52.6375,4.7701,4637,T*3B
$GPGGA,094804.00,5238.29574,N,00446.29169,E,1,07,1.60,4693.2,M,45.8,M,,*6C
Sensors;-173;-175;8
$$TBL,84,11:48:04,52.6382,4.7715,4693,F*28
$GPGGA,094812.000,5238.3307,N,00446.3618,E,1,10,0.8,4753.0,M,46.9,M,,0000*6C
Sensors;-172;-174;8
$$TBB,84,11:48:12,52.6388,4.7726,4753,T*34
$GPGGA,094821.00,5238.36942,N,00446.45052,E,1,07,1.60,4810.2,M,45.8,M,,*6A
Sensors;-173;-175;8
$$TBL,85,11:48:21,52.6394,4.7741,4810,F*2D
$GPGGA,094829.000,5238.4042,N,00446.5269,E,1,10,0.8,4864.7,M,46.9,M,,0000*69
Sensors;-173;-175;8
$$TBB,85,11:48:29,52.6400,4.7754,4864,T*34
$GPGGA,094838.00,5238.44041,N,00446.61194,E,1,07,1.61,4914.8,M,45.8,M,,*6E
Sensors;-173;-175;8
$$TBL,86,11:48:38,52.6406,4.7768,4914,F*24
$GPGGA,094846.000,5238.4787,N,00446.6878,E,1,10,0.8,4975.6,M,46.9,M,,0000*67
Sensors;-173;-175;8
$$TBB,86,11:48:46,52.6413,4.7781,4975,T*35
$GPGGA,094855.00,5238.51731,N,00446.77657,E,1,07,1.61,5031.0,M,45.8,M,,*69
Sensors;-170;-170;8
$$TBL,87,11:48:55,52.6419,4.7796,5031,F*2E
$GPGGA,094904.000,5238.5476,N,00446.8654,E,1,10,0.8,5095.1,M,46.9,M,,0000*63
Sensors;-173;-175;8
$$TBB,87,11:49:04,52.6424,4.7810,5095,T*36
$GPGGA,094913.00,5238.58123,N,00446.95098,E,1,07,1.61,5153.9,M,45.8,M,,*63
Sensors;-173;-175;8
$$TBL,88,11:49:13,52.6430,4.7825,5153,F*2B
$GPGGA,094921.000,5238.6182,N,00447.0337,E,1,10,0.8,5211.5,M,46.9,M,,0000*6A
Sensors;-173;-175;8
$$TBB,88,11:49:21,52.6436,4.7838,5211,T*39
$GPGGA,094930.00,5238.65126,N,00447.12240,E,1,07,1.61,5269.8,M,45.8,M,,*6B
Sensors;-173;-175;8
$$TBL,89,11:49:30,52.6441,4.7853,5269,F*26
$GPGGA,094939.000,5238.6860,N,00447.2071,E,1,10,0.8,5337.1,M,46.9,M,,0000*64
Sensors;-173;-175;8
$$TBB,89,11:49:39,52.6447,4.7867,5337,T*38
$GPGGA,094948.00,5238.72290,N,00447.29777,E,1,07,1.61,5390.8,M,45.8,M,,*62
Sensors;-173;-175;8
$$TBL,90,11:49:48,52.6453,4.7882,5390,F*29
$GPGGA,094957.000,5238.7560,N,00447.3825,E,1,10,0.8,5455.9,M,46.9,M,,0000*63
Sensors;-173;-175;8
$$TBB,90,11:49:57,52.6459,4.7897,5455,T*3B
$GPGGA,095006.00,5238.78732,N,00447.46249,E,1,07,1.61,5510.2,M,45.8,M,,*62
Sensors;-173;-175;8
$$TBL,91,11:50:06,52.6464,4.7910,5510,F*2A
$GPGGA,095015.000,5238.8223,N,00447.5501,E,1,11,0.8,5575.1,M,46.9,M,,0000*65
Sensors;-173;-175;8
$$TBB,91,11:50:15,52.6470,4.7925,5575,T*34
$GPGGA,095024.00,5238.85943,N,00447.64123,E,1,07,1.61,5634.1,M,45.8,M,,*61
Sensors;-173;-175;8
$$TBL,92,11:50:24,52.6476,4.7940,5634,F*2A
$GPGGA,095033.000,5238.8963,N,00447.7240,E,1,11,0.8,5696.8,M,46.9,M,,0000*69
Sensors;-170;-170;8
$$TBB,92,11:50:33,52.6482,4.7954,5696,T*36
$GPGGA,095042.00,5238.92949,N,00447.80954,E,1,07,1.61,5755.5,M,45.8,M,,*6D
Sensors;-173;-175;8
$$TBL,93,11:50:42,52.6488,4.7968,5755,F*26
$GPGGA,095050.000,5238.9660,N,00447.8862,E,1,11,0.8,5812.3,M,46.9,M,,0000*6D
Sensors;-173;-175;8
$$TBB,93,11:50:50,52.6494,4.7981,5812,T*3F
$GPGGA,095059.00,5239.00158,N,00447.97162,E,1,07,1.61,5874.0,M,45.8,M,,*67
Sensors;-173;-175;8
$$TBL,94,11:50:59,52.6500,4.7995,5874,F*24
$GPGGA,095107.000,5239.0349,N,00448.0451,E,1,10,0.8,5935.4,M,46.9,M,,0000*61
Sensors;-173;-175;8
$$TBB,94,11:51:07,52.6505,4.8007,5935,T*3E
$GPGGA,095116.00,5239.07652,N,00448.12503,E,1,07,1.61,5994.8,M,45.8,M,,*61
Sensors;-173;-175;8
$$TBL,95,11:51:16,52.6512,4.8020,5994,F*2B
$GPGGA,095124.000,5239.1115,N,00448.1980,E,1,11,0.8,6051.8,M,46.9,M,,0000*6F
Sensors;-173;-175;8
$$TBB,95,11:51:24,52.6518,4.8032,6051,T*3C
$GPGGA,095133.00,5239.14788,N,00448.27932,E,1,07,1.62,6101.9,M,45.8,M,,*6F
Sensors;-170;-170;8
$$TBL,96,11:51:33,52.6524,4.8046,6101,F*2D
$GPGGA,095142.000,5239.1928,N,00448.3682,E,1,11,0.8,6169.5,M,46.9,M,,0000*61
Sensors;-173;-175;8
$$TBB,96,11:51:42,52.6532,4.8061,6169,T*3B
$GPGGA,095151.00,5239.24064,N,00448.45423,E,1,07,1.62,6231.4,M,45.8,M,,*69
Sensors;-173;-175;8
$$TBL,97,11:51:51,52.6540,4.8075,6231,F*2A
$GPGGA,095200.000,5239.2855,N,00448.5361,E,1,11,0.8,6299.7,M,46.9,M,,0000*6C
Sensors;-173;-175;8
$$TBB,97,11:52:00,52.6547,4.8089,6299,T*37
$GPGGA,095209.00,5239.33424,N,00448.61743,E,1,07,1.62,6358.6,M,45.8,M,,*6E
Sensors;-170;-170;8
$$TBL,98,11:52:09,52.6555,4.8102,6358,F*20
$GPGGA,095217.000,5239.3785,N,00448.6910,E,1,11,0.8,6417.5,M,46.9,M,,0000*64
Sensors;-173;-175;8
$$TBB,98,11:52:17,52.6563,4.8115,6417,T*3C
$GPGGA,095226.00,5239.42500,N,00448.78102,E,1,07,1.62,6477.8,M,45.8,M,,*6D
Sensors;-173;-175;8
$$TBL,99,11:52:26,52.6570,4.8130,6477,F*20
$GPGGA,095234.000,5239.4694,N,00448.8587,E,1,11,0.8,6542.9,M,46.9,M,,0000*62
Sensors;-173;-175;8
$$TBB,99,11:52:34,52.6578,4.8143,6542,T*34
$GPGGA,095243.00,5239.51742,N,00448.95252,E,1,07,1.62,6602.6,M,45.8,M,,*63
Sensors;-173;-175;8
$$TBL,100,11:52:43,52.6586,4.8158,6602,F*15
$GPGGA,095252.000,5239.5732,N,00449.0546,E,1,10,1.4,6665.4,M,46.9,M,,0000*6D
Sensors;-173;-175;8
$$TBB,100,11:52:52,52.6595,4.8175,6665,T*05
$GPGGA,095301.00,5239.63063,N,00449.15119,E,1,08,1.50,6729.7,M,45.8,M,,*63
Sensors;-173;-175;8
$$TBL,101,11:53:01,52.6605,4.8191,6729,F*16
$GPGGA,095310.000,5239.6930,N,00449.2507,E,1,10,1.5,6803.0,M,46.9,M,,0000*69
Sensors;-170;-170;8
$$TBB,101,11:53:10,52.6615,4.8208,6803,T*0F
$GPGGA,095319.00,5239.75376,N,00449.34661,E,1,08,1.50,6860.3,M,45.8,M,,*67
Sensors;-173;-175;7
$$TBL,102,11:53:19,52.6625,4.8224,6860,F*11
$GPGGA,095328.000,5239.8169,N,00449.4401,E,1,10,1.5,6928.0,M,46.9,M,,0000*61
Sensors;-173;-175;8
$$TBB,102,11:53:28,52.6636,4.8240,6928,T*02
$GPGGA,095337.00,5239.87117,N,00449.53707,E,1,08,1.51,6987.6,M,45.8,M,,*6F
Sensors;-173;-175;8
$$TBL,103,11:53:37,52.6645,4.8256,6987,F*17
$GPGGA,095346.000,5239.9358,N,00449.6366,E,1,09,1.5,7055.8,M,46.9,M,,0000*6E
Sensors;-173;-175;8
$$TBB,103,11:53:46,52.6655,4.8272,7055,T*0D
$GPGGA,095355.00,5239.99073,N,00449.72506,E,1,08,1.51,7108.7,M,45.8,M,,*68
Sensors;-173;-175;8
$$TBL,104,11:53:55,52.6665,4.8287,7108,F*14
$GPGGA,095404.000,5240.0432,N,00449.8146,E,1,09,1.5,7176.2,M,46.9,M,,0000*67
Sensors;-173;-175;8
$$TBB,104,11:54:04,52.6673,4.8302,7176,T*09
$GPGGA,095413.00,5240.11060,N,00449.90528,E,1,08,1.51,7242.9,M,45.8,M,,*62
Sensors;-171;-171;8
$$TBL,105,11:54:13,52.6685,4.8317,7242,F*1B
$GPGGA,095422.000,5240.1803,N,00450.0058,E,1,08,1.5,7309.2,M,46.9,M,,0000*69
Sensors;-173;-175;8
$$TBB,105,11:54:22,52.6696,4.8334,7309,T*08
$GPGGA,095431.00,5240.24250,N,00450.12146,E,1,08,1.52,7367.8,M,45.8,M,,*6F
Sensors;-173;-175;8
$$TBL,106,11:54:31,52.6707,4.8353,7367,F*15
$GPGGA,095440.000,5240.3108,N,00450.2336,E,1,08,1.8,7435.3,M,46.9,M,,0000*60
Sensors;-173;-175;8
$$TBB,106,11:54:40,52.6718,4.8372,7435,T*02
$GPGGA,095449.00,5240.37386,N,00450.34145,E,1,09,1.50,7496.6,M,45.8,M,,*6B
Sensors;-173;-175;8
$$TBL,107,11:54:49,52.6728,4.8390,7496,F*10
$GPGGA,095458.000,5240.4320,N,00450.4646,E,1,09,1.5,7558.2,M,46.9,M,,0000*65
Sensors;-173;-175;8
$$TBB,107,11:54:58,52.6738,4.8410,7558,T*01
$GPGGA,095507.00,5240.49249,N,00450.58560,E,1,09,1.50,7622.5,M,45.8,M,,*6C
Sensors;-173;-175;8
$$TBL,108,11:55:07,52.6748,4.8430,7622,F*12
$GPGGA,095516.000,5240.5490,N,00450.7122,E,1,09,1.5,7689.5,M,46.9,M,,0000*6D
Sensors;-170;-170;8
$$TBB,108,11:55:16,52.6758,4.8452,7689,T*0A
$GPGGA,095525.00,5240.60402,N,00450.84128,E,1,09,1.50,7754.4,M,45.8,M,,*66
Sensors;-173;-175;8
$$TBL,109,11:55:25,52.6767,4.8473,7754,F*19
$GPGGA,095534.000,5240.6624,N,00450.9734,E,1,09,1.5,7821.5,M,46.9,M,,0000*60
Sensors;-173;-175;8
$$TBB,109,11:55:34,52.6777,4.8495,7821,T*01
$GPGGA,095543.00,5240.72090,N,00451.10078,E,1,09,1.51,7875.0,M,45.8,M,,*6B
Sensors;-173;-175;8
$$TBL,110,11:55:43,52.6786,4.8516,7875,F*10
$GPGGA,095552.000,5240.7791,N,00451.2313,E,1,09,1.5,7940.3,M,46.9,M,,0000*65
Sensors;-170;-170;8
$$TBB,110,11:55:52,52.6796,4.8538,7940,T*06
$GPGGA,095601.00,5240.84151,N,00451.36564,E,1,09,1.51,8000.6,M,45.8,M,,*64
Sensors;-173;-175;8
$$TBL,111,11:56:01,52.6806,4.8560,8000,F*17
$GPGGA,095610.000,5240.9000,N,00451.4920,E,1,09,1.5,8067.9,M,46.9,M,,0000*64
Sensors;-172;-175;8
$$TBB,111,11:56:10,52.6816,4.8581,8067,T*04
$GPGGA,095619.00,5240.96963,N,00451.62158,E,1,09,1.51,8141.4,M,45.8,M,,*6B
Sensors;-172;-175;8
$$TBL,112,11:56:19,52.6828,4.8603,8141,F*13
$GPGGA,095628.000,5241.0379,N,00451.7318,E,1,09,1.5,8206.4,M,46.9,M,,0000*60
Sensors;-172;-175;8
$$TBB,112,11:56:28,52.6839,4.8621,8206,T*0D
$GPGGA,095637.00,5241.10156,N,00451.85323,E,1,09,1.52,8271.5,M,45.8,M,,*63
Sensors;-172;-174;8
$$TBL,113,11:56:37,52.6850,4.8642,8271,F*14
$GPGGA,095646.000,5241.1631,N,00451.9714,E,1,09,1.5,8332.0,M,46.9,M,,0000*64
Sensors;-172;-174;8
$$TBB,113,11:56:46,52.6860,4.8661,8332,T*0A
$GPGGA,095655.00,5241.22217,N,00452.09370,E,1,09,1.52,8389.9,M,45.8,M,,*6B
Sensors;-170;-170;9
$$TBL,114,11:56:55,52.6870,4.8682,8389,F*1F
$GPGGA,095704.000,5241.2860,N,00452.2224,E,1,09,1.5,8454.4,M,46.9,M,,0000*67
Sensors;-172;-174;8
$$TBB,114,11:57:04,52.6880,4.8703,8454,T*06
$GPGGA,095713.00,5241.34906,N,00452.35038,E,1,09,1.52,8519.6,M,45.8,M,,*64
Sensors;-172;-174;8
$$TBL,115,11:57:13,52.6891,4.8725,8519,F*11
$GPGGA,095722.000,5241.4123,N,00452.4730,E,1,09,1.5,8584.1,M,46.9,M,,0000*64
Sensors;-172;-174;8
$$TBB,115,11:57:22,52.6902,4.8745,8584,T*06
$GPGGA,095731.00,5241.47867,N,00452.58622,E,1,09,1.52,8653.9,M,45.8,M,,*62
Sensors;-172;-174;8
$$TBL,116,11:57:31,52.6913,4.8764,8653,F*11
$GPGGA,095740.000,5241.5355,N,00452.6951,E,1,09,1.5,8718.1,M,46.9,M,,0000*6E
Sensors;-172;-174;8
$$TBB,116,11:57:40,52.6922,4.8782,8718,T*0F
$GPGGA,095749.00,5241.60685,N,00452.81731,E,1,09,1.53,8785.2,M,45.8,M,,*6D
Sensors;-172;-174;8
$$TBL,117,11:57:49,52.6934,4.8802,8785,F*1F
$GPGGA,095758.000,5241.6773,N,00452.9469,E,1,08,1.6,8849.0,M,46.9,M,,0000*65
Sensors;-170;-170;9
$$TBB,117,11:57:58,52.6946,4.8824,8849,T*0D
$GPGGA,095807.00,5241.74578,N,00453.08157,E,1,09,1.53,8913.7,M,45.8,M,,*6E
Sensors;-172;-174;8
$$TBL,118,11:58:07,52.6957,4.8846,8913,F*11
$GPGGA,095816.000,5241.8201,N,00453.2324,E,1,09,1.5,8969.4,M,46.9,M,,0000*6F
Sensors;-172;-174;8
$$TBB,118,11:58:16,52.6969,4.8872,8969,T*0A
$GPGGA,095825.00,5241.88682,N,00453.36258,E,1,09,1.53,9038.3,M,45.8,M,,*6F
Sensors;-172;-174;8
$$TBL,119,11:58:25,52.6981,4.8893,9038,F*12
$GPGGA,095834.000,5241.9413,N,00453.4999,E,1,08,1.7,9107.3,M,46.9,M,,0000*64
Sensors;-169;-170;9
$$TBB,119,11:58:34,52.6990,4.8916,9107,T*0F
$GPGGA,095843.00,5242.00325,N,00453.64775,E,1,09,1.53,9179.7,M,45.8,M,,*69
Sensors;-172;-174;8
$$TBL,120,11:58:43,52.7000,4.8941,9179,F*13
$GPGGA,095852.000,5242.0568,N,00453.7961,E,1,09,1.5,9244.6,M,46.9,M,,0000*65
Sensors;-171;-174;8
$$TBB,120,11:58:52,52.7009,4.8966,9244,T*0E
$GPGGA,095901.00,5242.11873,N,00453.95584,E,1,09,1.53,9311.0,M,45.8,M,,*6F
Sensors;-171;-173;8
$$TBL,121,11:59:01,52.7019,4.8992,9311,F*1F
$GPGGA,095910.000,5242.1888,N,00454.1174,E,1,09,1.5,9378.2,M,46.9,M,,0000*67
Sensors;-171;-173;8
$$TBB,121,11:59:10,52.7031,4.9019,9378,T*0D
$GPGGA,095919.00,5242.26369,N,00454.27649,E,1,09,1.54,9447.5,M,45.8,M,,*68
Sensors;-171;-173;8
$$TBL,122,11:59:19,52.7043,4.9046,9447,F*1F
$GPGGA,095928.000,5242.3319,N,00454.4314,E,1,08,1.6,9506.1,M,46.9,M,,0000*62
Sensors;-171;-173;8
$$TBB,122,11:59:28,52.7055,4.9071,9506,T*06
$GPGGA,095937.00,5242.40037,N,00454.59610,E,1,09,1.54,9570.9,M,45.8,M,,*60
Sensors;-169;-169;9
$$TBL,123,11:59:37,52.7066,4.9099,9570,F*12
$GPGGA,095946.000,5242.4739,N,00454.7643,E,1,09,1.5,9634.0,M,46.9,M,,0000*6E
Sensors;-171;-173;8
$$TBB,123,11:59:46,52.7078,4.9127,9634,T*00
$GPGGA,095955.00,5242.56346,N,00454.92656,E,1,09,1.54,9701.7,M,45.8,M,,*69
Sensors;-171;-173;8
$$TBL,124,11:59:55,52.7093,4.9154,9701,F*1F
$GPGGA,100004.000,5242.6338,N,00455.0555,E,1,09,1.5,9763.3,M,46.9,M,,0000*69
Sensors;-171;-173;8
$$TBB,124,12:00:04,52.7105,4.9175,9763,T*01
$GPGGA,100013.00,5242.71798,N,00455.20908,E,1,09,1.54,9833.2,M,45.8,M,,*6A
Sensors;-171;-173;8
$$TBL,125,12:00:13,52.7119,4.9201,9833,F*1D
$GPGGA,100022.000,5242.7990,N,00455.3606,E,1,09,1.5,9900.0,M,46.9,M,,0000*6A
Sensors;-171;-173;8
$$TBB,125,12:00:22,52.7133,4.9226,9900,T*0F
$GPGGA,100031.00,5242.88626,N,00455.50348,E,1,09,1.54,9968.8,M,45.8,M,,*64
Sensors;-171;-173;8
$$TBL,126,12:00:31,52.7147,4.9250,9968,F*1E
$GPGGA,100040.000,5242.9623,N,00455.6564,E,1,09,1.5,10035.8,M,46.9,M,,0000*5A
Sensors;-169;-169;9
$$TBB,126,12:00:40,52.7160,4.9276,10035,T*3C
Failed to read GPS
$$TBB,126,12:00:40,52.7160,4.9276,10035,T
Sensors;-172;-175;8
$$TBL,127,12:00:40,52.7160,4.9276,10035,T*33
$GPGGA,100101.000,5243.1532,N,00456.0169,E,1,09,1.5,10191.9,M,46.9,M,,0000*56
Sensors;-169;-171;9
$$TBB,127,12:01:01,52.7192,4.9336,10191,T*3E
$GPGGA,100110.00,5243.24077,N,00456.18270,E,1,09,1.55,10267.6,M,45.8,M,,*55
Sensors;-170;-172;8
$$TBL,128,12:01:10,52.7206,4.9363,10267,F*29
$GPGGA,100119.000,5243.3254,N,00456.3271,E,1,09,1.5,10326.5,M,46.9,M,,0000*51
Sensors;-170;-172;8
$$TBB,128,12:01:19,52.7220,4.9387,10326,T*36
$GPGGA,100128.00,5243.40734,N,00456.48930,E,1,09,1.55,10396.8,M,45.8,M,,*57
Sensors;-170;-172;8
$$TBL,129,12:01:28,52.7234,4.9414,10396,F*2A
$GPGGA,100137.000,5243.4964,N,00456.6464,E,1,09,1.5,10457.8,M,46.9,M,,0000*59
Sensors;-170;-172;8
$$TBB,129,12:01:37,52.7249,4.9441,10457,T*38
$GPGGA,100146.00,5243.59793,N,00456.80890,E,1,09,1.55,10530.5,M,45.8,M,,*52
Sensors;-168;-168;9
$$TBL,130,12:01:46,52.7266,4.9468,10530,F*2C
$GPGGA,100155.000,5243.6666,N,00456.9948,E,1,08,3.1,10584.7,M,46.9,M,,0000*59
Sensors;-170;-172;8
$$TBB,130,12:01:55,52.7277,4.9499,10584,T*33
Failed to read GPS
$$TBB,130,12:01:55,52.7277,4.9499,10584,T
Sensors;-172;-174;8
$$TBL,131,12:01:55,52.7277,4.9499,10584,T*3C
$GPGGA,100215.000,5243.8330,N,00457.3636,E,1,09,1.5,10723.3,M,46.9,M,,0000*57
Sensors;-169;-171;9
$$TBB,131,12:02:15,52.7305,4.9560,10723,T*39
Failed to read GPS
$$TBB,131,12:02:15,52.7305,4.9560,10723,T
Sensors;-170;-170;9
$$TBL,132,12:02:15,52.7305,4.9560,10723,T*34
$GPGGA,100235.000,5243.9590,N,00457.6897,E,1,09,1.5,10856.1,M,46.9,M,,0000*57
Sensors;-169;-171;9
$$TBB,132,12:02:35,52.7326,4.9614,10856,T*34
Failed to read GPS
$$TBB,132,12:02:35,52.7326,4.9614,10856,T
Sensors;-172;-174;8
$$TBL,133,12:02:35,52.7326,4.9614,10856,T*3B
$GPGGA,100255.000,5244.0973,N,00458.0048,E,1,09,1.5,10981.7,M,46.9,M,,0000*50
Sensors;-169;-171;9
$$TBB,133,12:02:55,52.7349,4.9667,10981,T*35
$GPGGA,100304.00,5244.16709,N,00458.13777,E,1,09,1.55,11051.5,M,45.8,M,,*58
Sensors;-170;-172;9
$$TBL,134,12:03:04,52.7361,4.9689,11051,F*24
$GPGGA,100313.000,5244.2358,N,00458.2432,E,1,09,1.5,11105.0,M,46.9,M,,0000*5B
Sensors;-169;-171;9
$$TBB,134,12:03:13,52.7372,4.9707,11105,T*3B
$GPGGA,100322.00,5244.31488,N,00458.39821,E,1,09,1.55,11181.1,M,45.8,M,,*5F
Sensors;-169;-171;9
$$TBL,135,12:03:22,52.7385,4.9733,11181,F*27
$GPGGA,100331.000,5244.3778,N,00458.5673,E,1,09,1.5,11235.1,M,46.9,M,,0000*5D
Sensors;-168;-168;9
$$TBB,135,12:03:31,52.7396,4.9761,11235,T*30
Failed to read GPS
$$TBB,135,12:03:31,52.7396,4.9761,11235,T
Sensors;-171;-174;8
$$TBL,136,12:03:31,52.7396,4.9761,11235,T*3D
$GPGGA,100351.000,5244.5344,N,00458.9616,E,1,09,1.5,11374.6,M,46.9,M,,0000*5A
Sensors;-168;-170;9
$$TBB,136,12:03:51,52.7422,4.9826,11374,T*35
Failed to read GPS
$$TBB,136,12:03:51,52.7422,4.9826,11374,T
Sensors;-171;-173;8
$$TBL,137,12:03:51,52.7422,4.9826,11374,T*3A
$GPGGA,100411.000,5244.7112,N,00459.3741,E,1,09,1.5,11526.4,M,46.9,M,,0000*51
Sensors;-166;-166;10
$$TBB,137,12:04:11,52.7451,4.9895,11526,T*3A
$GPGGA,100420.00,5244.76795,N,00459.57977,E,1,09,1.55,11587.1,M,45.8,M,,*5F
Sensors;-169;-171;9
$$TBL,138,12:04:20,52.7461,4.9929,11587,F*25
$GPGGA,100429.000,5244.8082,N,00459.7724,E,1,09,1.5,11647.7,M,46.9,M,,0000*5D
Sensors;-169;-171;9
$$TBB,138,12:04:29,52.7468,4.9962,11647,T*39
Failed to read GPS
$$TBB,138,12:04:29,52.7468,4.9962,11647,T
Sensors;-171;-173;8
$$TBL,139,12:04:29,52.7468,4.9962,11647,T*36
$GPGGA,100449.000,5244.8868,N,00500.1402,E,1,09,1.5,11760.2,M,46.9,M,,0000*5A
Sensors;-168;-170;9
$$TBB,139,12:04:49,52.7481,5.0023,11760,T*39
Failed to read GPS
$$TBB,139,12:04:49,52.7481,5.0023,11760,T
Sensors;-171;-173;8
$$TBL,140,12:04:49,52.7481,5.0023,11760,T*39
$GPGGA,100509.000,5244.9713,N,00500.4286,E,1,10,0.9,11880.2,M,46.9,M,,0000*56
Sensors;-168;-169;9
$$TBB,140,12:05:09,52.7495,5.0071,11880,T*31
$GPGGA,100518.00,5245.02873,N,00500.56603,E,1,09,1.55,11951.4,M,45.8,M,,*52
Sensors;-167;-167;10
$$TBL,141,12:05:18,52.7504,5.0094,11951,F*23
$GPGGA,100527.000,5245.0842,N,00500.7010,E,1,10,0.9,12010.8,M,46.9,M,,0000*5F
Sensors;-169;-171;9
$$TBB,141,12:05:27,52.7514,5.0116,12010,T*36
Failed to read GPS
$$TBB,141,12:05:27,52.7514,5.0116,12010,T
Sensors;-171;-173;8
$$TBL,142,12:05:27,52.7514,5.0116,12010,T*3B
$GPGGA,100547.000,5245.2185,N,00500.9945,E,1,10,0.9,12128.9,M,46.9,M,,0000*55
Sensors;-167;-169;9
$$TBB,142,12:05:47,52.7536,5.0165,12128,T*3D
$GPGGA,100556.00,5245.29053,N,00501.12068,E,1,09,1.55,12180.5,M,45.8,M,,*57
Sensors;-168;-170;9
$$TBL,143,12:05:56,52.7548,5.0186,12180,F*26
$GPGGA,100605.000,5245.3491,N,00501.2447,E,1,09,1.5,12233.3,M,46.9,M,,0000*52
Sensors;-168;-170;9
$$TBB,143,12:06:05,52.7558,5.0207,12233,T*3F
Failed to read GPS
$$TBB,143,12:06:05,52.7558,5.0207,12233,T
Sensors;-170;-172;8
$$TBL,144,12:06:05,52.7558,5.0207,12233,T*36
$GPGGA,100625.000,5245.4792,N,00501.5321,E,1,10,0.9,12367.5,M,46.9,M,,0000*54
Sensors;-167;-169;9
$$TBB,144,12:06:25,52.7579,5.0255,12367,T*3E
$GPGGA,100634.00,5245.54315,N,00501.66137,E,1,09,1.54,12435.5,M,45.8,M,,*59
Sensors;-168;-170;9
$$TBL,145,12:06:34,52.7590,5.0276,12435,F*25
$GPGGA,100643.000,5245.6095,N,00501.8025,E,1,09,0.9,12494.7,M,46.9,M,,0000*5D
Sensors;-168;-170;9
$$TBB,145,12:06:43,52.7601,5.0300,12494,T*39
$GPGGA,100652.00,5245.64999,N,00501.94076,E,1,08,1.63,12557.5,M,45.8,M,,*5D
Sensors;-168;-170;9
$$TBL,146,12:06:52,52.7608,5.0323,12557,F*20
$GPGGA,100701.000,5245.6961,N,00502.0682,E,1,10,0.9,12623.3,M,46.9,M,,0000*5A
Sensors;-167;-167;10
$$TBB,146,12:07:01,52.7615,5.0344,12623,T*36
$GPGGA,100710.00,5245.71964,N,00502.19025,E,1,09,1.54,12693.1,M,45.8,M,,*56
Sensors;-168;-170;9
$$TBL,147,12:07:10,52.7619,5.0365,12693,F*2F
$GPGGA,100719.000,5245.7792,N,00502.2930,E,1,10,0.9,12752.3,M,46.9,M,,0000*53
Sensors;-168;-170;9
$$TBB,147,12:07:19,52.7629,5.0382,12752,T*3C
Failed to read GPS
$$TBB,147,12:07:19,52.7629,5.0382,12752,T
Sensors;-170;-172;9
$$TBL,148,12:07:19,52.7629,5.0382,12752,T*3D
$GPGGA,100739.000,5245.8888,N,00502.5564,E,1,09,1.0,12852.3,M,46.9,M,,0000*5F
Sensors;-167;-169;10
$$TBB,148,12:07:39,52.7648,5.0426,12852,T*30
Failed to read GPS
$$TBB,148,12:07:39,52.7648,5.0426,12852,T
Sensors;-170;-172;9
$$TBL,149,12:07:39,52.7648,5.0426,12852,T*3F
$GPGGA,100759.000,5246.0181,N,00502.7976,E,1,10,0.9,12939.4,M,46.9,M,,0000*54
Sensors;-167;-168;10
$$TBB,149,12:07:59,52.7669,5.0466,12939,T*3C
$GPGGA,100808.00,5246.08299,N,00502.91025,E,1,09,1.54,12976.4,M,45.8,M,,*55
Sensors;-166;-166;10
$$TBL,150,12:08:08,52.7680,5.0485,12976,F*22
$GPGGA,100817.000,5246.1496,N,00503.0365,E,1,10,0.9,13019.6,M,46.9,M,,0000*55
Sensors;-168;-169;9
$$TBB,150,12:08:17,52.7691,5.0506,13019,T*3B
Failed to read GPS
$$TBB,150,12:08:17,52.7691,5.0506,13019,T
Sensors;-169;-171;9
$$TBL,151,12:08:17,52.7691,5.0506,13019,T*34
$GPGGA,100837.000,5246.2553,N,00503.3461,E,1,10,0.9,13120.4,M,46.9,M,,0000*55
Sensors;-166;-168;10
$$TBB,151,12:08:37,52.7709,5.0557,13120,T*37
$GPGGA,100846.00,5246.29635,N,00503.47436,E,1,09,1.53,13167.3,M,45.8,M,,*5B
Sensors;-167;-169;9
$$TBL,152,12:08:46,52.7716,5.0579,13167,F*2F
$GPGGA,100855.000,5246.3330,N,00503.6075,E,1,09,0.9,13206.6,M,46.9,M,,0000*5A
Sensors;-167;-169;9
$$TBB,152,12:08:55,52.7722,5.0601,13206,T*3E
$GPGGA,100904.00,5246.36936,N,00503.73056,E,1,09,1.53,13243.5,M,45.8,M,,*58
Sensors;-167;-169;9
$$TBL,153,12:09:04,52.7728,5.0621,13243,F*2F
$GPGGA,100913.000,5246.4063,N,00503.8560,E,1,10,0.9,13283.5,M,46.9,M,,0000*52
Sensors;-166;-166;10
$$TBB,153,12:09:13,52.7734,5.0642,13283,T*31
Failed to read GPS
$$TBB,153,12:09:13,52.7734,5.0642,13283,T
Sensors;-169;-171;9
$$TBL,154,12:09:13,52.7734,5.0642,13283,T*38
$GPGGA,100933.000,5246.4814,N,00504.1363,E,1,10,0.9,13369.7,M,46.9,M,,0000*54
Sensors;-166;-168;10
$$TBB,154,12:09:33,52.7746,5.0689,13369,T*33
Failed to read GPS
$$TBB,154,12:09:33,52.7746,5.0689,13369,T
Sensors;-169;-171;9
$$TBL,155,12:09:33,52.7746,5.0689,13369,T*3C
$GPGGA,100953.000,5246.5521,N,00504.4059,E,1,09,1.5,13463.6,M,46.9,M,,0000*5E
Sensors;-164;-164;10
$$TBB,155,12:09:53,52.7758,5.0734,13463,T*31
Failed to read GPS
$$TBB,155,12:09:53,52.7758,5.0734,13463,T
Sensors;-169;-171;9
$$TBL,156,12:09:53,52.7758,5.0734,13463,T*3C
$GPGGA,101013.000,5246.6379,N,00504.6747,E,1,10,0.9,13547.7,M,46.9,M,,0000*53
Sensors;-166;-167;10
$$TBB,156,12:10:13,52.7772,5.0779,13547,T*38
$GPGGA,101022.00,5246.67674,N,00504.79878,E,1,09,1.52,13588.1,M,45.8,M,,*55
Sensors;-166;-168;10
$$TBL,157,12:10:22,52.7779,5.0799,13588,F*21
$GPGGA,101031.000,5246.7124,N,00504.9167,E,1,10,0.9,13627.5,M,46.9,M,,0000*54
Sensors;-167;-169;10
$$TBB,157,12:10:31,52.7785,5.0819,13627,T*3D
$GPGGA,101040.00,5246.74467,N,00505.03614,E,1,09,1.52,13667.4,M,45.8,M,,*5C
Sensors;-167;-169;10
$$TBL,158,12:10:40,52.7790,5.0839,13667,F*2A
$GPGGA,101049.000,5246.7751,N,00505.1485,E,1,10,0.9,13713.5,M,46.9,M,,0000*59
Sensors;-167;-169;10
$$TBB,158,12:10:49,52.7795,5.0858,13713,T*3F
$GPGGA,101058.00,5246.79984,N,00505.25357,E,1,09,1.51,13750.3,M,45.8,M,,*5F
Sensors;-166;-166;10
$$TBL,159,12:10:58,52.7800,5.0875,13750,F*29
$GPGGA,101107.000,5246.8340,N,00505.3556,E,1,10,0.9,13795.8,M,46.9,M,,0000*57
Sensors;-167;-169;10
$$TBB,159,12:11:07,52.7805,5.0892,13795,T*3B
$GPGGA,101116.00,5246.87712,N,00505.44732,E,1,09,1.51,13836.1,M,45.8,M,,*59
Sensors;-167;-168;10
$$TBL,160,12:11:16,52.7812,5.0907,13836,F*20
$GPGGA,101125.000,5246.9266,N,00505.5262,E,1,09,1.5,13876.8,M,46.9,M,,0000*52
Sensors;-167;-169;10
$$TBB,160,12:11:25,52.7821,5.0921,13876,T*3C
$GPGGA,101134.00,5246.97758,N,00505.61556,E,1,09,1.51,13923.6,M,45.8,M,,*53
Sensors;-167;-169;10
$$TBL,161,12:11:34,52.7829,5.0935,13923,F*2D
$GPGGA,101143.000,5247.0339,N,00505.7083,E,1,10,0.9,13963.0,M,46.9,M,,0000*56
Sensors;-167;-168;10
$$TBB,161,12:11:43,52.7838,5.0951,13963,T*37
$GPGGA,101152.00,5247.09556,N,00505.81246,E,1,09,1.51,14005.2,M,45.8,M,,*5F
Sensors;-167;-168;10
$$TBL,162,12:11:52,52.7849,5.0968,14005,F*2A
$GPGGA,101201.000,5247.1592,N,00505.9211,E,1,10,0.9,14048.4,M,46.9,M,,0000*51
Sensors;-165;-165;10
$$TBB,162,12:12:01,52.7859,5.0986,14048,T*3B
$GPGGA,101210.00,5247.22686,N,00506.03082,E,1,09,1.50,14094.5,M,45.8,M,,*50
Sensors;-167;-168;10
$$TBL,163,12:12:10,52.7871,5.1005,14094,F*2E
$GPGGA,101219.000,5247.2893,N,00506.1562,E,1,10,0.9,14126.8,M,46.8,M,,0000*5B
Sensors;-167;-168;10
$$TBB,163,12:12:19,52.7881,5.1026,14126,T*3D
$GPGGA,101228.00,5247.35244,N,00506.28858,E,1,09,1.50,14173.2,M,45.8,M,,*5E
Sensors;-166;-168;10
$$TBL,164,12:12:28,52.7892,5.1048,14173,F*2E
$GPGGA,101237.000,5247.4066,N,00506.4172,E,1,10,0.9,14209.4,M,46.8,M,,0000*51
Sensors;-167;-168;10
$$TBB,164,12:12:37,52.7901,5.1069,14209,T*3A
$GPGGA,101246.00,5247.45665,N,00506.56188,E,1,09,1.50,14250.5,M,45.8,M,,*5E
Sensors;-166;-168;10
$$TBL,165,12:12:46,52.7909,5.1093,14250,F*20
$GPGGA,101256.000,5247.5133,N,00506.7130,E,1,09,1.1,14297.8,M,46.8,M,,0000*59
Sensors;-166;-168;10
$$TBB,165,12:12:56,52.7918,5.1118,14297,T*34
$GPGGA,101305.00,5247.55828,N,00506.84518,E,1,09,1.49,14331.5,M,45.8,M,,*52
Sensors;-165;-165;10
$$TBL,166,12:13:05,52.7926,5.1140,14331,F*21
$GPGGA,101314.000,5247.6010,N,00506.9811,E,1,10,0.9,14378.6,M,46.8,M,,0000*56
Sensors;-166;-168;10
$$TBB,166,12:13:14,52.7933,5.1163,14378,T*35
Failed to read GPS
$$TBB,166,12:13:14,52.7933,5.1163,14378,T
Sensors;-168;-170;9
$$TBL,167,12:13:14,52.7933,5.1163,14378,T*3A
$GPGGA,101334.000,5247.6789,N,00507.2567,E,1,09,0.9,14470.5,M,46.8,M,,0000*51
Sensors;-165;-167;10
$$TBB,167,12:13:34,52.7946,5.1209,14470,T*34
Failed to read GPS
$$TBB,167,12:13:34,52.7946,5.1209,14470,T
Sensors;-168;-170;9
$$TBL,168,12:13:34,52.7946,5.1209,14470,T*35
$GPGGA,101354.000,5247.7590,N,00507.5161,E,1,10,0.9,14560.0,M,46.8,M,,0000*54
Sensors;-165;-166;10
$$TBB,168,12:13:54,52.7959,5.1252,14560,T*3D
$GPGGA,101403.00,5247.78680,N,00507.62630,E,1,10,0.88,14597.3,M,45.8,M,,*58
Sensors;-166;-167;10
$$TBL,169,12:14:03,52.7964,5.1271,14597,F*22
$GPGGA,101412.000,5247.8202,N,00507.7352,E,1,09,1.1,14637.1,M,46.8,M,,0000*53
Sensors;-165;-167;10
$$TBB,169,12:14:12,52.7969,5.1289,14637,T*3D
Failed to read GPS
$$TBB,169,12:14:12,52.7969,5.1289,14637,T
Sensors;-168;-170;9
$$TBL,170,12:14:12,52.7969,5.1289,14637,T*3B
$GPGGA,101432.000,5247.8951,N,00507.9639,E,1,09,0.9,14731.5,M,46.8,M,,0000*50
Sensors;-165;-166;10
$$TBB,170,12:14:32,52.7982,5.1327,14731,T*30
$GPGGA,101441.00,5247.92358,N,00508.06622,E,1,10,0.88,14777.9,M,45.8,M,,*52
Sensors;-165;-167;10
$$TBL,171,12:14:41,52.7987,5.1344,14777,F*2B
$GPGGA,101451.000,5247.9493,N,00508.1588,E,1,10,0.9,14824.9,M,46.8,M,,0000*56
Sensors;-165;-165;10
$$TBB,171,12:14:51,52.7991,5.1359,14824,T*34
$GPGGA,101500.00,5247.97290,N,00508.23886,E,1,10,0.88,14864.7,M,45.8,M,,*52
Sensors;-166;-167;10
$$TBL,172,12:15:00,52.7995,5.1373,14864,F*26
$GPGGA,101509.000,5247.9995,N,00508.3125,E,1,09,0.9,14909.1,M,46.8,M,,0000*5E
Sensors;-166;-167;10
$$TBB,172,12:15:09,52.7999,5.1385,14909,T*3C
$GPGGA,101518.00,5248.03675,N,00508.39811,E,1,10,0.93,14949.3,M,45.8,M,,*53
Sensors;-166;-167;10
$$TBL,173,12:15:18,52.8006,5.1399,14949,F*28
$GPGGA,101527.000,5248.0712,N,00508.4899,E,1,09,0.9,14994.1,M,46.8,M,,0000*58
Sensors;-166;-167;10
$$TBB,173,12:15:27,52.8011,5.1414,14994,T*3C
$GPGGA,101536.00,5248.10370,N,00508.58929,E,1,10,0.93,15037.6,M,45.8,M,,*54
Sensors;-166;-167;10
$$TBL,174,12:15:36,52.8017,5.1431,15037,F*27
$GPGGA,101546.000,5248.1411,N,00508.7117,E,1,09,0.9,15084.9,M,46.8,M,,0000*53
Sensors;-166;-167;10
$$TBB,174,12:15:46,52.8023,5.1451,15084,T*35
Failed to read GPS
$$TBB,174,12:15:46,52.8023,5.1451,15084,T
Sensors;-167;-167;10
$$TBL,175,12:15:46,52.8023,5.1451,15084,T*3A
$GPGGA,101606.000,5248.2046,N,00508.9211,E,1,09,0.9,15181.5,M,46.8,M,,0000*52
Sensors;-164;-166;10
$$TBB,175,12:16:06,52.8034,5.1486,15181,T*3B
$GPGGA,101615.00,5248.23177,N,00509.00259,E,1,10,0.93,15223.9,M,45.8,M,,*5B
Sensors;-165;-166;10
$$TBL,176,12:16:15,52.8038,5.1500,15223,F*2E
$GPGGA,101624.000,5248.2624,N,00509.0836,E,1,08,1.0,15265.5,M,46.8,M,,0000*57
Sensors;-165;-167;10
$$TBB,176,12:16:24,52.8043,5.1513,15265,T*3C
$GPGGA,101633.00,5248.30295,N,00509.16674,E,1,10,0.93,15313.2,M,45.8,M,,*57
Sensors;-165;-167;10
$$TBL,177,12:16:33,52.8050,5.1527,15313,F*22
$GPGGA,101642.000,5248.3327,N,00509.2499,E,1,09,0.9,15354.8,M,46.8,M,,0000*5C
Sensors;-165;-167;10
$$TBB,177,12:16:42,52.8055,5.1541,15354,T*3E
$GPGGA,101651.00,5248.36878,N,00509.34106,E,1,09,0.93,15402.8,M,45.8,M,,*5B
Sensors;-165;-167;10
$$TBL,178,12:16:51,52.8061,5.1556,15402,F*2A
$GPGGA,101700.000,5248.4090,N,00509.4251,E,1,09,0.9,15441.9,M,46.8,M,,0000*55
Sensors;-164;-164;11
$$TBB,178,12:17:00,52.8068,5.1570,15441,T*39
$GPGGA,101709.00,5248.43896,N,00509.51452,E,1,09,0.93,15481.5,M,45.8,M,,*54
Sensors;-165;-167;10
$$TBL,179,12:17:09,52.8073,5.1585,15481,F*21
$GPGGA,101718.000,5248.4619,N,00509.6030,E,1,08,0.9,15524.0,M,46.8,M,,0000*56
Sensors;-165;-167;10
$$TBB,179,12:17:18,52.8076,5.1600,15524,T*38
Failed to read GPS
$$TBB,179,12:17:18,52.8076,5.1600,15524,T
Sensors;-167;-169;10
$$TBL,180,12:17:18,52.8076,5.1600,15524,T*30
$GPGGA,101738.000,5248.5452,N,00509.7958,E,1,09,0.9,15615.5,M,46.8,M,,0000*5B
Sensors;-164;-165;11
$$TBB,180,12:17:38,52.8090,5.1632,15615,T*34
$GPGGA,101747.00,5248.58119,N,00509.89015,E,1,09,0.93,15654.5,M,45.8,M,,*52
Sensors;-164;-166;10
$$TBL,181,12:17:47,52.8096,5.1648,15654,F*2F
$GPGGA,101756.000,5248.6068,N,00509.9872,E,1,09,0.9,15695.7,M,46.8,M,,0000*50
Sensors;-165;-166;10
$$TBB,181,12:17:56,52.8101,5.1664,15695,T*3F
$GPGGA,101805.00,5248.62771,N,00510.08225,E,1,09,0.93,15734.1,M,45.8,M,,*59
Sensors;-164;-164;11
$$TBL,182,12:18:05,52.8104,5.1680,15734,F*2C
$GPGGA,101814.000,5248.6481,N,00510.1648,E,1,08,0.9,15776.7,M,46.8,M,,0000*50
Sensors;-165;-166;10
$$TBB,182,12:18:14,52.8107,5.1694,15776,T*30
Failed to read GPS
$$TBB,182,12:18:14,52.8107,5.1694,15776,T
Sensors;-167;-168;10
$$TBL,183,12:18:14,52.8107,5.1694,15776,T*3F
$GPGGA,101834.000,5248.6882,N,00510.3188,E,1,09,0.9,15873.7,M,46.8,M,,0000*5F
Sensors;-163;-165;11
$$TBB,183,12:18:34,52.8114,5.1719,15873,T*3F
Failed to read GPS
$$TBB,183,12:18:34,52.8114,5.1719,15873,T
Sensors;-165;-165;10
$$TBL,184,12:18:34,52.8114,5.1719,15873,T*36
$GPGGA,101854.000,5248.7390,N,00510.4667,E,1,09,0.9,15974.8,M,46.8,M,,0000*58
Sensors;-163;-165;11
$$TBB,184,12:18:54,52.8123,5.1744,15974,T*34
$GPGGA,101903.00,5248.76808,N,00510.51548,E,1,09,0.93,16018.0,M,45.8,M,,*51
Sensors;-164;-166;10
$$TBL,185,12:19:03,52.8128,5.1752,16018,F*26
$GPGGA,101912.000,5248.8029,N,00510.5757,E,1,09,0.9,16064.7,M,46.8,M,,0000*52
Sensors;-164;-166;10
$$TBB,185,12:19:12,52.8133,5.1762,16064,T*38
$GPGGA,101921.00,5248.84305,N,00510.62732,E,1,09,0.93,16103.5,M,45.8,M,,*5B
Sensors;-165;-166;10
$$TBL,186,12:19:21,52.8140,5.1771,16103,F*21
$GPGGA,101931.000,5248.8837,N,00510.6827,E,1,09,0.9,16153.6,M,46.8,M,,0000*5B
Sensors;-165;-166;10
$$TBB,186,12:19:31,52.8147,5.1780,16153,T*30
$GPGGA,101940.00,5248.91867,N,00510.73033,E,1,09,0.93,16194.2,M,45.8,M,,*58
Sensors;-164;-166;10
$$TBL,187,12:19:40,52.8153,5.1788,16194,F*2D
$GPGGA,101949.000,5248.9590,N,00510.7907,E,1,09,0.9,16240.7,M,46.8,M,,0000*57
Sensors;-164;-164;11
$$TBB,187,12:19:49,52.8159,5.1798,16240,T*39
$GPGGA,101958.00,5249.00017,N,00510.85185,E,1,09,0.93,16278.4,M,45.8,M,,*55
Sensors;-165;-166;10
$$TBL,188,12:19:58,52.8166,5.1808,16278,F*2B
$GPGGA,102007.000,5249.0407,N,00510.9098,E,1,09,0.9,16326.4,M,46.8,M,,0000*53
Sensors;-164;-166;10
$$TBB,188,12:20:07,52.8173,5.1818,16326,T*38
Failed to read GPS
$$TBB,188,12:20:07,52.8173,5.1818,16326,T
Sensors;-166;-168;10
$$TBL,189,12:20:07,52.8173,5.1818,16326,T*37
$GPGGA,102027.000,5249.1211,N,00511.0390,E,1,09,0.9,16417.5,M,46.8,M,,0000*56
Sensors;-163;-165;11
$$TBB,189,12:20:27,52.8186,5.1839,16417,T*37
$GPGGA,102036.00,5249.15641,N,00511.09972,E,1,09,0.93,16456.0,M,45.8,M,,*5D
Sensors;-164;-165;11
$$TBL,190,12:20:36,52.8192,5.1849,16456,F*24
$GPGGA,102045.000,5249.1956,N,00511.1551,E,1,09,0.9,16505.6,M,46.8,M,,0000*51
Sensors;-164;-166;10
$$TBB,190,12:20:45,52.8199,5.1859,16505,T*31
$GPGGA,102054.00,5249.23922,N,00511.22107,E,1,09,0.93,16543.5,M,45.8,M,,*55
Sensors;-163;-163;11
$$TBL,191,12:20:54,52.8206,5.1870,16543,F*20
$GPGGA,102103.000,5249.2834,N,00511.2904,E,1,08,1.0,16591.6,M,46.8,M,,0000*5F
Sensors;-164;-166;10
$$TBB,191,12:21:03,52.8213,5.1881,16591,T*3A
$GPGGA,102112.00,5249.33056,N,00511.36269,E,1,09,0.93,16629.4,M,45.8,M,,*5D
Sensors;-164;-165;11
$$TBL,192,12:21:12,52.8221,5.1893,16629,F*27
$GPGGA,102121.000,5249.3750,N,00511.4332,E,1,09,0.9,16676.8,M,46.8,M,,0000*57
Sensors;-164;-166;10
$$TBB,192,12:21:21,52.8229,5.1905,16676,T*37
$GPGGA,102130.00,5249.41716,N,00511.51338,E,1,09,0.93,16713.5,M,45.8,M,,*56
Sensors;-164;-166;10
$$TBL,193,12:21:30,52.8236,5.1918,16713,F*2A
$GPGGA,102139.000,5249.4538,N,00511.5844,E,1,09,0.9,16757.2,M,46.8,M,,0000*56
Sensors;-164;-166;10
$$TBB,193,12:21:39,52.8242,5.1930,16757,T*36
$GPGGA,102148.00,5249.48448,N,00511.64520,E,1,09,0.93,16795.7,M,45.8,M,,*5D
Sensors;-164;-165;11
$$TBL,194,12:21:48,52.8247,5.1940,16795,F*27
$GPGGA,102157.000,5249.5106,N,00511.7113,E,1,09,0.9,16841.3,M,46.8,M,,0000*56
Sensors;-163;-163;11
$$TBB,194,12:21:57,52.8251,5.1951,16841,T*34
$GPGGA,102206.00,5249.54202,N,00511.76179,E,1,09,0.93,16880.0,M,45.8,M,,*56
Sensors;-164;-166;10
$$TBL,195,12:22:06,52.8256,5.1960,16880,F*26
$GPGGA,102215.000,5249.5757,N,00511.8136,E,1,09,0.9,16924.3,M,46.8,M,,0000*5B
Sensors;-164;-166;10
$$TBB,195,12:22:15,52.8262,5.1968,16924,T*38
$GPGGA,102224.00,5249.61365,N,00511.86958,E,1,09,0.93,16966.9,M,45.8,M,,*54
Sensors;-164;-165;11
$$TBL,196,12:22:24,52.8268,5.1978,16966,F*28
$GPGGA,102233.000,5249.6484,N,00511.9358,E,1,09,0.9,17010.0,M,46.8,M,,0000*56
Sensors;-164;-166;11
$$TBB,196,12:22:33,52.8274,5.1989,17010,T*38
$GPGGA,102242.00,5249.68736,N,00512.01560,E,1,09,0.93,17051.0,M,45.8,M,,*51
Sensors;-164;-165;11
$$TBL,197,12:22:42,52.8281,5.2002,17051,F*25
$GPGGA,102251.000,5249.7182,N,00512.0940,E,1,08,1.4,17095.0,M,46.8,M,,0000*59
Sensors;-164;-165;11
$$TBB,197,12:22:51,52.8286,5.2015,17095,T*32
$GPGGA,102300.00,5249.74392,N,00512.17371,E,1,09,0.93,17135.2,M,45.8,M,,*51
Sensors;-163;-163;11
$$TBL,198,12:23:00,52.8290,5.2028,17135,F*26
$GPGGA,102309.000,5249.7661,N,00512.2406,E,1,09,0.9,17175.0,M,46.8,M,,0000*50
Sensors;-164;-165;11
$$TBB,198,12:23:09,52.8294,5.2040,17175,T*3D
Failed to read GPS
$$TBB,198,12:23:09,52.8294,5.2040,17175,T
Sensors;-166;-167;10
$$TBL,199,12:23:09,52.8294,5.2040,17175,T*32
$GPGGA,102329.000,5249.8115,N,00512.3780,E,1,09,0.9,17273.0,M,46.8,M,,0000*50
Sensors;-163;-164;11
$$TBB,199,12:23:29,52.8301,5.2062,17273,T*36
Failed to read GPS
$$TBB,199,12:23:29,52.8301,5.2062,17273,T
Sensors;-165;-167;10
$$TBL,200,12:23:29,52.8301,5.2062,17273,T*3B
$GPGGA,102349.000,5249.8656,N,00512.4989,E,1,09,0.9,17368.8,M,46.8,M,,0000*55
Sensors;-163;-164;11
$$TBB,200,12:23:49,52.8310,5.2083,17368,T*37
$GPGGA,102358.00,5249.89063,N,00512.56356,E,1,09,0.93,17408.5,M,45.8,M,,*5F
Sensors;-163;-165;11
$$TBL,201,12:23:58,52.8315,5.2093,17408,F*2F
$GPGGA,102407.000,5249.9169,N,00512.6314,E,1,09,0.9,17458.2,M,46.8,M,,0000*50
Sensors;-163;-163;11
$$TBB,201,12:24:07,52.8319,5.2105,17458,T*39
$GPGGA,102416.00,5249.93867,N,00512.69441,E,1,09,0.93,17496.5,M,45.8,M,,*5F
Sensors;-164;-165;11
$$TBL,202,12:24:16,52.8323,5.2115,17496,F*2C
$GPGGA,102425.000,5249.9552,N,00512.7596,E,1,09,0.9,17540.9,M,46.8,M,,0000*52
Sensors;-164;-165;11
$$TBB,202,12:24:25,52.8325,5.2126,17540,T*3C
$GPGGA,102434.00,5249.96017,N,00512.82759,E,1,09,0.93,17582.4,M,45.8,M,,*5F
Sensors;-164;-165;11
$$TBL,203,12:24:34,52.8326,5.2137,17582,F*2C
$GPGGA,102443.000,5249.9696,N,00512.8894,E,1,09,0.9,17628.1,M,46.8,M,,0000*5C
Sensors;-164;-165;11
$$TBB,203,12:24:43,52.8328,5.2148,17628,T*35
$GPGGA,102452.00,5249.98484,N,00512.95231,E,1,09,0.93,17669.6,M,45.8,M,,*56
Sensors;-164;-165;11
$$TBL,204,12:24:52,52.8330,5.2158,17669,F*23
$GPGGA,102501.000,5249.9963,N,00513.0115,E,1,09,0.9,17712.3,M,46.8,M,,0000*5D
Sensors;-164;-165;11
$$TBB,204,12:25:01,52.8332,5.2168,17712,T*34
$GPGGA,102510.00,5249.99706,N,00513.07827,E,1,09,0.93,17754.8,M,45.8,M,,*5F
Sensors;-163;-163;11
$$TBL,205,12:25:10,52.8332,5.2179,17754,F*2B
$GPGGA,102519.000,5250.0018,N,00513.1298,E,1,09,0.9,17798.9,M,46.8,M,,0000*5F
Sensors;-163;-165;11
$$TBB,205,12:25:19,52.8333,5.2188,17798,T*31
Failed to read GPS
$$TBB,205,12:25:19,52.8333,5.2188,17798,T
Sensors;-165;-167;10
$$TBL,206,12:25:19,52.8333,5.2188,17798,T*3C
$GPGGA,102539.000,5250.0163,N,00513.1888,E,1,09,0.9,17897.2,M,46.8,M,,0000*50
Sensors;-163;-163;11
$$TBB,206,12:25:39,52.8336,5.2198,17897,T*34
$GPGGA,102548.00,5250.02828,N,00513.21974,E,1,09,0.93,17934.0,M,45.8,M,,*58
Sensors;-163;-163;11
$$TBL,207,12:25:48,52.8338,5.2203,17934,F*28
$GPGGA,102557.000,5250.0408,N,00513.2529,E,1,09,0.9,17982.3,M,46.8,M,,0000*51
Sensors;-163;-165;11
$$TBB,207,12:25:57,52.8340,5.2208,17982,T*33
$GPGGA,102606.00,5250.05492,N,00513.28772,E,1,09,0.93,18023.4,M,45.8,M,,*5E
Sensors;-163;-164;11
$$TBL,208,12:26:06,52.8342,5.2214,18023,F*25
$GPGGA,102615.000,5250.0700,N,00513.3278,E,1,09,0.9,18068.0,M,46.8,M,,0000*5C
Sensors;-163;-165;11
$$TBB,208,12:26:15,52.8344,5.2221,18068,T*34
Failed to read GPS
$$TBB,208,12:26:15,52.8344,5.2221,18068,T
Sensors;-165;-167;10
$$TBL,209,12:26:15,52.8344,5.2221,18068,T*3B
$GPGGA,102636.000,5250.1028,N,00513.4371,E,1,09,0.9,18170.6,M,46.8,M,,0000*50
Sensors;-162;-163;11
$$TBB,209,12:26:36,52.8350,5.2239,18170,T*30
$GPGGA,102645.00,5250.11673,N,00513.48395,E,1,09,0.92,18209.1,M,45.8,M,,*54
Sensors;-163;-164;11
$$TBL,210,12:26:45,52.8352,5.2247,18209,F*26
$GPGGA,102654.000,5250.1229,N,00513.5224,E,1,09,0.9,18255.2,M,46.8,M,,0000*57
Sensors;-163;-163;11
$$TBB,210,12:26:54,52.8353,5.2253,18255,T*37
$GPGGA,102703.00,5250.12500,N,00513.55101,E,1,09,0.92,18294.2,M,45.8,M,,*57
Sensors;-163;-164;11
$$TBL,211,12:27:03,52.8354,5.2258,18294,F*28
$GPGGA,102712.000,5250.1223,N,00513.5712,E,1,09,0.9,18343.3,M,46.8,M,,0000*59
Sensors;-163;-164;11
$$TBB,211,12:27:12,52.8353,5.2261,18343,T*32
Failed to read GPS
$$TBB,211,12:27:12,52.8353,5.2261,18343,T
Sensors;-165;-166;10
$$TBL,212,12:27:12,52.8353,5.2261,18343,T*3F
$GPGGA,102732.000,5250.1202,N,00513.5893,E,1,09,0.9,18444.3,M,46.8,M,,0000*5E
Sensors;-162;-163;11
$$TBB,212,12:27:32,52.8353,5.2264,18444,T*36
Failed to read GPS
$$TBB,212,12:27:32,52.8353,5.2264,18444,T
Sensors;-165;-166;10
$$TBL,213,12:27:32,52.8353,5.2264,18444,T*39
$GPGGA,102752.000,5250.1465,N,00513.5588,E,1,09,0.9,18551.9,M,46.8,M,,0000*57
Sensors;-162;-163;11
$$TBB,213,12:27:52,52.8357,5.2259,18551,T*3E
Failed to read GPS
$$TBB,213,12:27:52,52.8357,5.2259,18551,T
Sensors;-164;-164;11
$$TBL,214,12:27:52,52.8357,5.2259,18551,T*37
